name,lon,lat,flavor,hip
Blue Star,-122.686721,45.5227472,2,4
Voodoo,-122.68423,45.522192,1,1
VoodooToo,-122.6842299,45.5221917,0.5,1
Pips,-122.6138129,45.84626,3,2
Byte Labs,-122.6738557,45.5227091,1,5
Tigard Donut,-122.7868,45.42007,2,1
Everyday is a Donut Day,-122.8725,45.49475,5,4
Donut Land,-122.7639,45.38,2,2
Delight Donuts,-122.8266,45.47513,5,1